City_ID,City,Lat,Lng,Max Temp,Humidity,Cloudiness,Wind Speed,Country,Date
0,saldanha,-33.01,17.94,66.2,88,0,10.29,ZA,1583374900
1,dikson,73.51,80.55,-11.13,94,100,19.22,RU,1583374901
2,busselton,-33.65,115.33,73.99,38,100,5.59,AU,1583374901
3,kapaa,22.08,-159.32,80.6,74,40,10.29,US,1583374901
4,hilo,19.73,-155.09,77.0,69,90,10.29,US,1583374901
5,ewa beach,21.32,-158.01,82.4,61,75,13.87,US,1583374901
6,biak,-0.91,122.88,83.1,74,100,7.96,ID,1583374901
7,alice springs,-23.7,133.88,75.2,53,75,6.93,AU,1583374743
8,timra,62.49,17.33,28.99,100,100,9.17,SE,1583374901
9,cochrane,51.18,-114.47,32.0,38,1,12.75,CA,1583374901
10,chokurdakh,70.63,147.92,-7.4,80,0,3.36,RU,1583374901
11,mount darwin,-16.77,31.58,59.92,98,85,0.25,ZW,1583374902
12,narsaq,60.92,-46.05,3.2,59,0,5.82,GL,1583374902
13,punta arenas,-53.15,-70.92,51.8,81,100,8.05,CL,1583374805
14,albany,42.6,-73.97,41.0,80,40,12.75,US,1583374743
15,baykit,61.67,96.37,20.75,94,93,9.04,RU,1583374902
16,yakeshi,49.28,120.73,5.95,91,100,3.89,CN,1583374902
17,rikitea,-23.12,-134.97,77.52,73,66,19.77,PF,1583374902
18,butaritari,3.07,172.79,83.07,79,100,17.67,KI,1583374902
19,santiago del estero,-27.8,-64.26,78.69,38,0,10.4,AR,1583374902
20,esmeraldas,-19.76,-44.31,71.6,88,0,1.81,BR,1583374902
21,olafsvik,64.89,-23.71,29.32,72,2,15.82,IS,1583374902
22,voh,-20.97,164.7,83.48,71,51,11.59,NC,1583374902
23,port hardy,50.7,-127.42,39.2,80,90,19.46,CA,1583374903
24,leh,34.17,77.58,3.27,53,90,4.38,IN,1583374903
25,carnarvon,-24.87,113.63,80.6,74,0,11.41,AU,1583374903
26,lashio,22.93,97.75,77.41,35,0,2.06,MM,1583374903
27,talnakh,69.49,88.4,-4.0,83,100,20.13,RU,1583374903
28,bluff,-46.6,168.33,64.99,51,0,3.0,NZ,1583374903
29,puerto ayora,-0.74,-90.35,79.0,100,61,0.76,EC,1583374903
30,ondangwa,-17.92,15.95,71.6,83,92,4.7,NA,1583374903
31,clyde river,70.47,-68.59,-16.6,75,40,13.87,CA,1583374903
32,georgetown,5.41,100.34,86.0,70,20,4.7,MY,1583374623
33,hermanus,-34.42,19.23,64.0,95,12,5.75,ZA,1583374904
34,paamiut,61.99,-49.67,11.37,44,0,4.83,GL,1583374904
35,jamestown,42.1,-79.24,35.6,100,90,8.05,US,1583374904
36,neiafu,-18.65,-173.98,84.2,79,40,9.17,TO,1583374737
37,ushuaia,-54.8,-68.3,51.8,87,40,4.7,AR,1583374904
38,abdulino,53.7,53.67,20.89,95,48,6.13,RU,1583374904
39,beringovskiy,63.05,179.32,6.73,69,0,0.56,RU,1583374904
40,mahebourg,-20.41,57.7,79.0,100,40,3.74,MU,1583374904
41,mendi,-6.18,143.65,58.12,97,100,3.6,PG,1583374904
42,mataura,-46.19,168.86,64.99,51,0,3.0,NZ,1583374904
43,goderich,43.75,-81.72,34.0,78,64,4.0,CA,1583374904
44,saint george,37.1,-113.58,62.6,27,1,8.05,US,1583374877
45,atasu,48.68,71.64,11.32,50,63,3.56,KZ,1583374905
46,cabo san lucas,22.89,-109.91,68.0,63,90,4.7,MX,1583374905
47,nikolskoye,59.7,30.79,39.2,93,90,8.95,RU,1583374905
48,hovd,48.01,91.64,22.15,51,0,4.03,MN,1583374905
49,ekhabi,53.51,142.97,16.68,89,100,8.57,RU,1583374905
50,iskateley,67.68,53.15,8.31,92,0,8.16,RU,1583374905
51,tacoronte,28.48,-16.41,66.99,82,100,11.41,ES,1583374905
52,khatanga,71.97,102.5,-10.46,98,99,10.92,RU,1583374905
53,atuona,-9.8,-139.03,81.37,65,0,9.15,PF,1583374905
54,cidreira,-30.18,-50.21,71.8,69,67,11.7,BR,1583374906
55,odweyne,9.41,45.06,60.19,90,0,3.33,SO,1583374906
56,arraial do cabo,-22.97,-42.03,75.33,84,67,14.79,BR,1583374906
57,hobart,-42.88,147.33,64.4,93,75,6.93,AU,1583374818
58,la tuque,47.43,-72.78,23.63,88,100,9.62,CA,1583374906
59,airai,-8.93,125.41,78.89,73,63,4.47,TL,1583374906
60,pevek,69.7,170.31,2.34,66,0,8.48,RU,1583374906
61,port keats,-14.25,129.55,87.55,63,37,6.64,AU,1583374906
62,rawson,-43.3,-65.1,68.59,78,100,2.77,AR,1583374906
63,samdrup jongkhar,26.92,91.62,60.87,49,69,2.39,BT,1583374906
64,chuy,-33.7,-53.46,65.77,81,0,7.49,UY,1583374906
65,komsomolskiy,40.43,71.72,46.4,75,40,4.7,UZ,1583374686
66,pelym,61.01,62.0,10.24,84,0,9.24,RU,1583374865
67,henties bay,-22.12,14.28,68.0,90,10,1.99,NA,1583374907
68,tuatapere,-46.13,167.68,64.99,51,0,3.0,NZ,1583374907
69,muli,2.92,73.57,82.89,68,72,7.76,MV,1583374907
70,bethel,41.37,-73.41,50.0,70,90,12.75,US,1583374907
71,lodwar,3.12,35.6,81.57,51,100,11.03,KE,1583374907
72,yar-sale,66.83,70.83,-0.74,89,100,26.15,RU,1583374907
73,san cristobal,7.77,-72.22,84.2,62,20,4.7,VE,1583374907
74,guiratinga,-16.35,-53.76,70.34,83,12,2.86,BR,1583374907
75,barrow,71.29,-156.79,-32.8,90,1,8.05,US,1583374907
76,hambantota,6.12,81.12,75.2,100,75,2.24,LK,1583374907
77,qaanaaq,77.48,-69.36,-16.65,100,100,0.76,GL,1583374907
78,vaini,-21.2,-175.2,86.0,70,75,8.05,TO,1583374907
79,sokolo,14.73,-6.12,74.37,8,0,10.45,ML,1583374908
80,dobrin,47.28,23.13,39.2,100,100,2.24,RO,1583374908
81,ipameri,-17.72,-48.16,65.91,92,0,1.9,BR,1583374908
82,nabire,-3.37,135.48,77.58,90,100,1.81,ID,1583374908
83,victoria,22.29,114.16,64.99,87,40,11.41,HK,1583374900
84,yerofey pavlovich,53.97,121.97,13.64,86,100,4.27,RU,1583374908
85,ajdabiya,30.76,20.23,60.69,70,7,29.12,LY,1583374908
86,jaisalmer,26.91,70.92,65.88,57,0,16.64,IN,1583374908
87,kargil,34.57,76.1,7.63,94,98,1.99,IN,1583374908
88,nanortalik,60.14,-45.24,21.58,58,0,6.58,GL,1583374908
89,palencia,42.42,-4.5,53.01,85,100,11.01,ES,1583374908
90,port alfred,-33.59,26.89,71.01,81,0,7.0,ZA,1583374909
91,makat,47.65,53.35,42.57,86,80,4.52,KZ,1583374909
92,solnechnyy,50.72,136.63,23.68,87,100,4.03,RU,1583374909
93,carberry,49.87,-99.36,26.6,92,90,19.46,CA,1583374909
94,tuktoyaktuk,69.45,-133.04,-22.0,74,90,23.04,CA,1583374909
95,norman wells,65.28,-126.83,-13.0,69,75,9.17,CA,1583374909
96,longyearbyen,78.22,15.64,21.2,62,75,8.05,SJ,1583374909
97,camacha,33.08,-16.33,64.4,82,20,5.82,PT,1583374909
98,lebu,-37.62,-73.65,62.94,71,61,10.2,CL,1583374909
99,hay river,60.82,-115.8,-5.8,76,40,2.24,CA,1583374909
100,seoul,37.57,126.98,37.4,37,1,5.82,KR,1583374840
101,san miguel,13.48,-88.18,84.2,70,0,4.7,SV,1583374909
102,cherskiy,68.75,161.3,9.88,75,100,16.98,RU,1583374910
103,cape town,-33.93,18.42,68.0,93,75,11.41,ZA,1583374756
104,matara,5.95,80.54,80.08,74,24,5.84,LK,1583374810
105,hoyanger,61.22,6.07,34.0,94,97,6.93,NO,1583374910
106,kudahuvadhoo,2.67,72.89,82.9,70,100,8.66,MV,1583374910
107,lavrentiya,65.58,-171.0,1.62,92,0,4.36,RU,1583374910
108,kovdor,67.57,30.48,11.3,90,100,8.86,RU,1583374910
109,souillac,-20.52,57.52,79.0,100,40,3.74,MU,1583374910
110,clinton,42.59,-82.92,39.99,69,1,6.93,US,1583374829
111,camabatela,-8.19,15.38,61.88,97,34,1.95,AO,1583374910
112,ravar,31.27,56.81,44.02,42,0,9.17,IR,1583374910
113,labuan,5.28,115.24,80.6,94,75,4.7,MY,1583374856
114,kungurtug,50.6,97.52,11.84,87,99,1.9,RU,1583374911
115,rocha,-34.48,-54.33,60.89,95,0,6.35,UY,1583374911
116,coquimbo,-29.95,-71.34,60.8,87,90,6.93,CL,1583374911
117,champerico,14.3,-91.92,78.28,71,1,3.6,GT,1583374911
118,constitucion,-35.33,-72.42,61.5,57,1,6.58,CL,1583374911
119,maniitsoq,65.42,-52.9,14.68,40,41,0.85,GL,1583374911
120,saint-philippe,-21.36,55.77,78.8,100,90,4.7,RE,1583374911
121,naberera,-4.2,36.93,61.43,85,97,1.36,TZ,1583374911
122,cubuk,40.24,33.03,48.0,80,100,2.24,TR,1583374911
123,leningradskiy,69.38,178.42,3.87,56,89,0.47,RU,1583374911
124,kaeo,-35.1,173.78,73.0,100,100,1.99,NZ,1583374912
125,talcahuano,-36.72,-73.12,64.4,72,1,14.99,CL,1583374912
126,college,64.86,-147.8,-7.6,63,20,0.85,US,1583374912
127,upernavik,72.79,-56.15,-11.16,77,100,6.2,GL,1583374912
128,torbay,47.67,-52.73,39.99,86,90,29.97,CA,1583374912
129,esperance,-33.87,121.9,80.6,34,100,11.41,AU,1583374912
130,ancud,-41.87,-73.82,60.8,87,75,5.82,CL,1583374912
131,massakory,13.0,15.73,78.62,9,0,11.05,TD,1583374912
132,salalah,17.02,54.09,75.2,17,0,5.82,OM,1583374912
133,ambilobe,-13.2,49.05,74.71,93,100,1.88,MG,1583374912
134,thompson,55.74,-97.86,19.4,67,90,4.7,CA,1583374912
135,hithadhoo,-0.6,73.08,83.07,75,100,10.29,MV,1583374912
136,saint anthony,45.02,-93.22,37.99,69,75,17.22,US,1583374912
137,sumbe,-11.21,13.84,73.17,90,35,1.34,AO,1583374913
138,meulaboh,4.14,96.13,83.73,75,100,10.71,ID,1583374913
139,new norfolk,-42.78,147.06,64.4,93,75,5.82,AU,1583374913
140,biltine,14.53,20.92,74.44,20,26,6.38,TD,1583374913
141,mar del plata,-38.0,-57.56,69.01,100,90,6.93,AR,1583374913
142,hamburg,53.55,10.0,37.0,100,68,1.12,DE,1583374767
143,riverton,40.52,-111.94,51.8,66,1,6.93,US,1583374913
144,beloha,-25.17,45.05,68.83,81,4,14.92,MG,1583374913
145,katsuura,35.13,140.3,55.0,46,75,17.22,JP,1583374913
146,kirovskiy,45.09,133.51,22.01,92,100,11.21,RU,1583374913
147,tazovskiy,67.47,78.7,7.86,93,100,19.91,RU,1583374914
148,sao filipe,14.9,-24.5,73.31,61,0,17.87,CV,1583374914
149,bayir,37.27,28.22,60.8,59,75,10.29,TR,1583374914
150,vao,-22.67,167.48,80.62,76,0,11.95,NC,1583374914
151,zhezkazgan,47.8,67.71,6.8,84,75,8.95,KZ,1583374914
152,wasilla,61.58,-149.44,17.6,55,1,8.05,US,1583374734
153,cockburn town,21.46,-71.14,77.76,81,0,20.62,TC,1583374914
154,peniche,39.36,-9.38,59.0,87,40,11.41,PT,1583374914
155,teya,60.38,92.63,23.2,84,100,10.8,RU,1583374914
156,boyolangu,-8.12,111.89,76.23,85,100,0.49,ID,1583374914
157,tiksi,71.69,128.87,2.1,82,100,13.22,RU,1583374914
158,sitka,57.05,-135.33,37.4,69,90,14.99,US,1583374915
159,kavieng,-2.57,150.8,85.23,64,78,6.31,PG,1583374915
160,les escoumins,48.11,-69.02,27.86,94,100,15.21,CA,1583374915
161,kronshtadt,59.99,29.77,39.2,93,90,8.95,RU,1583374915
162,laguna,38.42,-121.42,73.4,40,1,4.7,US,1583374915
163,luderitz,-26.65,15.16,68.0,82,0,6.93,NA,1583374915
164,bathsheba,13.22,-59.52,78.8,69,20,19.46,BB,1583374915
165,ulladulla,-35.35,150.47,71.01,100,75,4.7,AU,1583374915
166,flinders,-34.58,150.86,71.01,100,75,4.7,AU,1583374915
167,bengkulu,-3.8,102.27,75.49,86,100,2.77,ID,1583374915
168,vestmannaeyjar,63.44,-20.27,37.31,59,100,5.73,IS,1583374915
169,aklavik,68.22,-135.01,-14.8,68,75,9.17,CA,1583374915
170,gonaives,19.45,-72.68,70.21,93,5,3.18,HT,1583374915
171,port elizabeth,-33.92,25.57,69.8,73,11,18.34,ZA,1583374916
172,namatanai,-3.67,152.43,85.44,69,100,10.96,PG,1583374916
173,vanavara,60.34,102.28,19.31,92,100,10.74,RU,1583374916
174,ponta do sol,32.67,-17.1,64.4,68,40,8.05,PT,1583374916
175,castro,-24.79,-50.01,58.1,97,3,5.86,BR,1583374916
176,kutum,14.2,24.67,59.52,22,6,3.18,SD,1583374916
177,haines junction,60.75,-137.51,-5.6,99,100,10.2,CA,1583374916
178,fredericton,45.95,-66.67,35.6,59,90,17.22,CA,1583374916
179,walvis bay,-22.96,14.51,68.0,88,0,10.29,NA,1583374632
180,severo-kurilsk,50.68,156.12,26.73,78,100,2.53,RU,1583374916
181,berbera,10.44,45.01,76.08,75,6,2.55,SO,1583374916
182,zalesovo,53.99,84.74,24.64,92,100,18.5,RU,1583374916
183,rossosh,51.12,38.51,39.43,93,100,9.51,RU,1583374917
184,kruisfontein,-34.0,24.73,66.15,75,0,5.1,ZA,1583374917
185,muzhi,65.37,64.67,6.26,78,0,17.52,RU,1583374917
186,bogoslovka,53.21,44.8,32.81,97,100,7.14,RU,1583374917
187,gat,31.61,34.76,62.01,81,0,4.7,IL,1583374917
188,kalevala,65.2,31.17,21.31,94,100,12.33,RU,1583374917
189,chokwe,-24.53,32.98,66.63,97,15,3.49,MZ,1583374917
190,sydney,-33.87,151.21,71.6,100,75,4.7,AU,1583374681
191,anadyr,64.75,177.48,6.8,65,44,11.18,RU,1583374917
192,miraflores,19.22,-98.81,82.4,30,40,11.41,MX,1583374917
193,labuhan,-6.88,112.21,76.17,87,100,8.37,ID,1583374917
194,jawhar,2.78,45.5,74.8,90,100,2.37,SO,1583374917
195,podor,16.65,-14.96,75.58,5,0,9.15,MR,1583374918
196,tall kayf,37.08,41.07,49.89,46,100,2.77,TR,1583374918
197,ilulissat,69.22,-51.1,-13.0,62,46,2.24,GL,1583374918
198,mount isa,-20.73,139.5,78.8,83,90,6.93,AU,1583374774
199,tasiilaq,65.61,-37.64,23.0,85,62,1.12,GL,1583374918
200,comodoro rivadavia,-45.87,-67.5,77.0,44,0,11.41,AR,1583374798
201,mahibadhoo,3.78,72.97,82.31,71,46,6.53,MV,1583374918
202,east london,-33.02,27.91,75.97,71,0,9.6,ZA,1583374918
203,turukhansk,65.82,87.98,4.53,97,100,3.91,RU,1583374885
204,pangkalanbuun,-2.68,111.62,79.93,89,100,5.12,ID,1583374891
205,mayskiy,47.69,40.1,39.99,69,96,2.24,RU,1583374918
206,broken hill,-31.95,141.43,64.4,88,90,17.22,AU,1583374918
207,nsanje,-16.92,35.26,65.34,98,92,1.97,MW,1583374919
208,kushmurun,52.45,64.63,18.77,91,95,5.28,KZ,1583374919
209,loandjili,-4.76,11.86,80.6,94,40,2.24,CG,1583374919
210,kuruman,-27.45,23.43,62.01,88,0,1.12,ZA,1583374919
211,tokur,53.13,132.9,17.65,79,0,1.99,RU,1583374919
212,kasongo-lunda,-6.47,16.82,67.82,97,96,0.87,CD,1583374919
213,zabaykalsk,49.63,117.32,5.58,92,77,5.84,RU,1583374919
214,touros,-5.2,-35.46,80.6,83,40,3.36,BR,1583374919
215,alyangula,-13.85,136.42,89.6,66,75,8.05,AU,1583374919
216,sorong,-0.88,131.25,92.88,50,69,3.09,ID,1583374919
217,morondava,-20.28,44.28,77.79,55,57,8.32,MG,1583374919
218,dickinson,29.46,-95.05,62.6,72,90,5.82,US,1583374919
219,boyarka,50.32,30.3,50.0,76,76,6.71,UA,1583374920
220,buriti bravo,-5.84,-43.83,71.13,98,85,2.42,BR,1583374704
221,constantine,36.37,6.61,41.0,93,20,2.24,DZ,1583374920
222,palana,59.12,159.97,20.03,69,3,2.84,RU,1583374920
223,umea,63.83,20.26,28.4,100,90,6.93,SE,1583374920
224,saskylakh,71.92,114.08,-5.64,97,77,3.49,RU,1583374920
225,faanui,-16.48,-151.75,82.56,71,100,6.2,PF,1583374920
226,codrington,-38.27,141.97,62.11,89,72,14.12,AU,1583374920
227,general pico,-35.66,-63.76,73.74,27,0,9.4,AR,1583374816
228,cayenne,4.93,-52.33,80.6,74,20,8.05,GF,1583374729
229,kinablangan,7.69,126.55,76.08,90,100,5.5,PH,1583374920
230,avarua,-21.21,-159.78,86.0,74,1,6.93,CK,1583374920
231,lahij,13.17,44.58,69.91,89,0,5.77,YE,1583374921
232,yellowknife,62.46,-114.35,-5.01,70,75,9.17,CA,1583374921
233,nantucket,41.28,-70.1,44.6,81,1,14.99,US,1583374921
234,savannah bight,16.45,-85.85,81.41,78,0,32.88,HN,1583374921
235,manjeri,11.12,76.12,78.8,69,75,3.36,IN,1583374921
236,grand gaube,-20.01,57.66,79.0,100,40,6.4,MU,1583374921
237,sontra,51.07,9.93,36.0,93,75,3.36,DE,1583374921
238,abu dhabi,24.47,54.37,66.2,68,40,8.05,AE,1583374898
239,ivanovice na hane,49.31,17.09,35.01,86,0,1.12,CZ,1583374922
240,boortmeerbeek,50.98,4.57,42.8,93,75,9.17,BE,1583374922
241,alta floresta,-9.88,-56.09,73.24,98,94,2.86,BR,1583374922
242,nome,64.5,-165.41,8.01,71,40,3.36,US,1583374775
243,bambanglipuro,-7.95,110.28,73.24,90,100,6.49,ID,1583374922
244,porto torres,40.84,8.4,51.8,87,40,2.24,IT,1583374922
245,kapustin yar,48.58,45.74,43.23,88,62,9.69,RU,1583374922
246,lubango,-14.92,13.49,62.4,46,100,3.22,AO,1583374923
247,clearlake,38.96,-122.63,73.4,28,1,3.36,US,1583374923
248,springfield,37.22,-93.3,50.0,61,1,3.0,US,1583374923
249,altay,47.87,88.12,15.24,59,0,2.57,CN,1583374923
250,vestmanna,62.16,-7.17,39.2,70,100,11.41,FO,1583374923
251,suntar,62.14,117.63,9.07,90,79,4.43,RU,1583374923
252,bonthe,7.53,-12.51,77.67,92,19,2.95,SL,1583374923
253,bredasdorp,-34.53,20.04,66.2,82,100,3.36,ZA,1583374923
254,nizhnyaya tavda,57.67,66.17,11.12,89,0,8.77,RU,1583374866
255,chapais,49.78,-74.85,17.6,61,20,6.93,CA,1583374923
256,katsuyama,36.06,136.5,45.0,80,75,20.8,JP,1583374923
257,eyl,7.98,49.82,77.16,64,0,8.88,SO,1583374923
258,bafoulabe,13.81,-10.83,75.34,7,0,3.91,ML,1583374924
259,tula,54.2,37.61,34.34,96,100,16.67,RU,1583374924
260,nampula,-15.12,39.27,69.8,94,20,11.41,MZ,1583374924
261,pacific grove,36.62,-121.92,60.8,72,1,8.05,US,1583374738
262,yulara,-25.24,130.99,80.6,28,0,8.05,AU,1583374924
263,vila velha,-20.33,-40.29,73.4,100,90,5.82,BR,1583374846
264,kastamonu,41.5,33.67,40.66,64,100,3.27,TR,1583374924
265,fortuna,40.6,-124.16,52.0,93,1,6.93,US,1583374924
266,canar,-2.55,-78.93,60.8,77,75,6.93,EC,1583374924
267,ribeira grande,38.52,-28.7,54.54,72,14,9.64,PT,1583374924
268,abu zabad,12.35,29.25,70.93,9,0,10.36,SD,1583374924
269,berlevag,70.86,29.09,23.4,71,80,21.99,NO,1583374925
270,lefka,35.11,32.85,60.8,62,100,9.17,CY,1583374925
271,zhadovka,53.57,46.95,27.9,97,84,7.4,RU,1583374925
272,henderson,36.04,-114.98,69.8,23,1,8.05,US,1583374762
273,adre,13.47,22.2,69.21,19,0,7.09,TD,1583374925
274,uporovo,56.31,66.27,10.09,90,0,8.32,RU,1583374925
275,alofi,-19.06,-169.92,84.2,79,75,6.93,NU,1583374925
276,tam ky,15.57,108.48,77.0,83,75,6.93,VN,1583374925
277,norrkoping,58.59,16.18,35.6,93,33,5.82,SE,1583374925
278,snasa,64.25,12.38,11.79,94,100,4.54,NO,1583374925
279,dunedin,-45.87,170.5,52.47,74,0,8.05,NZ,1583374925
280,provideniya,64.38,-173.3,14.0,61,0,4.03,RU,1583374925
281,bubaque,11.28,-15.83,80.73,65,0,4.7,GW,1583374926
282,brae,60.4,-1.35,41.0,93,97,9.17,GB,1583374926
283,bud,39.45,-86.18,45.0,60,20,8.05,US,1583374926
284,riyadh,24.69,46.72,53.6,32,0,2.24,SA,1583374673
285,saint-pierre,-21.34,55.48,78.8,100,90,4.7,RE,1583374903
286,karratha,-20.74,116.85,86.83,66,0,6.2,AU,1583374926
287,san vicente,-26.62,-54.13,64.69,60,0,3.65,AR,1583374926
288,the pas,53.83,-101.25,23.0,79,90,6.93,CA,1583374926
289,cooma,-36.23,149.13,62.6,100,90,18.34,AU,1583374926
290,san juan,-31.54,-68.54,83.82,30,52,8.25,AR,1583374688
291,mariinsk,56.21,87.75,25.18,83,100,21.47,RU,1583374926
292,kuito,-12.38,16.93,61.84,80,94,4.14,AO,1583374927
293,antofagasta,-23.65,-70.4,66.2,77,75,12.75,CL,1583374656
294,san jose,37.34,-121.89,72.0,43,40,10.29,US,1583374864
295,tura,25.52,90.22,73.24,58,83,4.07,IN,1583374927
296,gunjur,13.2,-16.73,75.2,60,0,4.83,GM,1583374927
297,ilabaya,-17.42,-70.51,62.85,90,37,4.88,PE,1583374927
298,uvalde,29.37,-99.77,60.01,58,1,12.75,US,1583374927
299,hasaki,35.73,140.83,52.0,57,75,13.87,JP,1583374927
300,portland,45.52,-122.68,53.6,40,1,1.81,US,1583374637
301,andra,62.51,65.89,10.06,80,19,13.38,RU,1583374927
302,sisimiut,66.94,-53.67,-1.5,40,97,5.44,GL,1583374927
303,kloulklubed,7.04,134.26,82.4,83,90,11.41,PW,1583374927
304,megara,38.0,23.35,54.0,81,20,3.36,GR,1583374928
305,coahuayana,18.73,-103.68,71.6,73,40,4.59,MX,1583374928
306,miri,4.41,114.01,77.0,100,90,3.36,MY,1583374928
307,ranot,7.78,100.32,81.46,76,81,10.56,TH,1583374928
308,taoudenni,22.68,-3.98,72.43,15,0,10.13,ML,1583374928
309,phuket,8.0,98.25,84.2,66,20,6.93,TH,1583374917
310,te anau,-45.42,167.72,54.43,48,0,2.33,NZ,1583374928
311,belyy yar,53.6,91.39,30.2,68,37,15.66,RU,1583374928
312,kapit,2.02,112.93,73.81,99,100,0.63,MY,1583374928
313,bayeux,-7.12,-34.93,78.8,88,20,2.24,BR,1583374928
314,bambous virieux,-20.34,57.76,79.0,100,40,11.23,MU,1583374928
315,kodiak,57.79,-152.41,19.4,48,1,26.4,US,1583374858
316,nueve de julio,-35.44,-60.88,77.0,55,0,6.64,AR,1583374928
317,saint-georges,12.06,-61.75,78.8,78,20,20.8,GD,1583374929
318,santa isabel do rio negro,-0.41,-65.02,75.07,97,100,1.25,BR,1583374929
319,trinidad,-14.83,-64.9,77.31,75,2,2.53,BO,1583374929
320,jauja,-11.78,-75.5,42.55,92,100,2.06,PE,1583374929
321,meiktila,20.87,95.87,82.42,25,1,7.63,MM,1583374929
322,pisco,-13.7,-76.22,73.99,78,75,16.11,PE,1583374929
323,bandarbeyla,9.49,50.81,77.38,64,0,7.0,SO,1583374929
324,sochi,43.6,39.73,55.0,57,100,8.95,RU,1583374929
325,mersing,2.43,103.84,84.2,79,40,5.82,MY,1583374929
326,colesberg,-30.72,25.1,66.13,46,0,1.86,ZA,1583374929
327,arlit,18.74,7.39,68.56,8,0,5.08,NE,1583374929
328,port hedland,-20.32,118.57,93.2,52,0,6.93,AU,1583374930
329,mayo,38.89,-76.51,57.2,55,75,4.7,US,1583374693
330,fontem,5.47,9.88,67.3,80,88,2.66,CM,1583374930
331,usinsk,65.99,57.53,5.07,96,45,11.43,RU,1583374930
332,quatre cocos,-20.21,57.76,79.0,100,40,9.1,MU,1583374930
333,lagoa,39.05,-27.98,58.68,68,2,13.31,PT,1583374930
334,luanda,-8.84,13.23,77.0,88,20,2.24,AO,1583374930
335,tuy hoa,13.08,109.3,78.4,80,100,12.08,VN,1583374930
336,thinadhoo,0.53,72.93,82.76,75,92,10.92,MV,1583374725
337,am timan,11.03,20.28,73.87,16,6,4.74,TD,1583374930
338,lorengau,-2.02,147.27,84.81,68,97,8.79,PG,1583374930
339,camana,-16.62,-72.71,67.03,84,100,3.44,PE,1583374930
340,boende,-0.22,20.87,74.97,74,27,2.51,CD,1583374931
341,tornabe,15.75,-87.55,82.4,78,5,3.67,HN,1583374931
342,poya,-21.35,165.15,81.39,74,47,9.62,NC,1583374931
343,kahului,20.89,-156.47,80.6,65,40,9.17,US,1583374879
344,caravelas,-17.71,-39.25,81.55,84,100,17.11,BR,1583374931
345,gamba,-2.65,10.0,78.4,91,100,3.2,GA,1583374931
346,prado,-17.34,-39.22,81.55,84,100,17.11,BR,1583374931
347,banjar,-8.19,114.97,82.4,94,40,5.82,ID,1583374931
348,buin,-33.73,-70.75,75.2,41,0,6.93,CL,1583374931
349,geraldton,-28.77,114.6,82.4,51,31,16.11,AU,1583374931
350,san isidro,-12.12,-77.05,73.4,83,100,12.75,PE,1583374931
351,batagay-alyta,67.8,130.41,-0.63,84,100,4.72,RU,1583374931
352,venado tuerto,-33.75,-61.97,71.01,72,0,6.26,AR,1583374931
353,san pedro,14.35,121.02,87.01,62,20,6.93,PH,1583374932
354,port blair,11.67,92.75,80.67,75,8,9.57,IN,1583374823
355,sorgun,39.81,35.19,42.13,50,89,5.14,TR,1583374932
356,sibu,2.3,111.82,75.2,88,90,3.36,MY,1583374912
357,roald,62.58,6.13,37.4,86,87,3.36,NO,1583374932
358,lata,40.16,-8.33,61.0,87,40,11.41,PT,1583374932
359,tshane,-24.02,21.87,66.58,59,10,6.15,BW,1583374932
360,plettenberg bay,-34.05,23.37,67.77,73,0,4.68,ZA,1583374932
361,gimli,50.63,-96.99,30.0,99,100,7.0,CA,1583374683
362,bam,29.11,58.36,49.75,37,0,13.02,IR,1583374932
363,cassilandia,-19.11,-51.73,68.4,95,0,2.86,BR,1583374932
364,fairbanks,64.84,-147.72,-7.6,63,20,1.43,US,1583374932
365,vilkaviskis,54.65,23.03,36.79,86,100,4.38,LT,1583374933
366,grindavik,63.84,-22.43,30.2,86,75,10.29,IS,1583374933
367,inuvik,68.35,-133.72,-14.8,68,75,9.17,CA,1583374779
368,lompoc,34.64,-120.46,59.0,87,1,6.93,US,1583374886
369,mareeba,-17.0,145.43,91.99,70,79,10.29,AU,1583374933
370,sola,-13.88,167.55,84.09,69,19,10.13,VU,1583374933
371,juneau,58.3,-134.42,37.4,74,90,16.11,US,1583374933
372,weihai,37.5,122.11,36.18,47,0,6.22,CN,1583374933
373,awbari,26.59,12.78,54.32,35,0,6.46,LY,1583374933
374,pinyug,60.25,47.78,6.55,95,15,5.19,RU,1583374933
375,ko samui,9.54,99.94,86.0,70,20,11.41,TH,1583374708
376,leshan,29.56,103.76,65.23,42,37,1.45,CN,1583374678
377,burgeo,47.62,-57.62,33.4,96,100,39.03,CA,1583374934
378,tigzirt,36.89,4.12,60.4,76,91,6.38,DZ,1583374934
379,takoradi,4.88,-1.76,78.17,94,84,3.44,GH,1583374934
380,beyneu,45.32,55.2,41.52,93,97,5.37,KZ,1583374934
381,aloleng,16.13,119.78,88.84,43,100,8.5,PH,1583374934
382,coihaique,-45.58,-72.07,57.2,82,0,4.7,CL,1583374934
383,acapulco,16.86,-99.89,82.4,74,20,10.29,MX,1583374736
384,ostrovnoy,68.05,39.51,10.18,81,33,12.8,RU,1583374934
385,ahmadpur,18.7,76.93,74.23,27,0,10.27,IN,1583374934
386,mandera,3.94,41.87,76.1,66,39,10.78,KE,1583374934
387,iqaluit,63.75,-68.51,3.2,77,90,14.99,CA,1583374935
388,sterling,39.01,-77.43,57.2,40,1,6.93,US,1583374880
389,tezu,27.92,96.17,72.86,36,13,2.89,IN,1583374935
390,tual,-5.67,132.75,80.91,88,79,20.18,ID,1583374935
391,santa rita do sapucai,-22.25,-45.7,58.86,97,1,3.51,BR,1583374935
392,nan,18.83,100.67,73.4,88,40,4.68,TH,1583374935
393,cap malheureux,-19.98,57.61,79.0,100,40,6.4,MU,1583374935
394,denpasar,-8.65,115.22,82.4,94,40,5.82,ID,1583374860
395,emerald,-23.53,148.17,88.0,66,75,11.41,AU,1583374935
396,visby,57.64,18.3,39.0,93,44,10.29,SE,1583374935
397,marzuq,14.4,46.47,62.98,56,0,1.25,YE,1583374935
398,oranjemund,-28.55,16.43,65.68,87,0,7.54,NA,1583374935
399,emporia,38.4,-96.18,48.2,48,1,8.05,US,1583374935
400,ayan,56.45,138.17,7.18,91,100,3.53,RU,1583374936
401,tambura,5.6,27.47,68.59,22,43,2.62,SS,1583374936
402,linares,-35.85,-71.6,60.08,36,66,1.23,CL,1583374696
403,filingue,14.35,3.32,74.44,9,0,8.25,NE,1583374936
404,hwange,-18.37,26.5,64.58,89,98,2.73,ZW,1583374936
405,oranjestad,12.52,-70.03,80.6,74,40,21.92,AW,1583374936
406,verkhoyansk,67.54,133.38,-2.15,73,100,4.94,RU,1583374936
407,havoysund,71.0,24.66,23.0,62,99,26.4,NO,1583374936
408,mount gambier,-37.83,140.77,66.2,68,90,11.41,AU,1583374936
409,katobu,-4.94,122.53,82.09,83,99,5.57,ID,1583374936
410,darhan,49.49,105.92,11.88,80,0,1.7,MN,1583374937
411,slupsk,54.46,17.03,33.19,92,0,6.98,PL,1583374937
412,vostok,46.49,135.88,22.86,89,100,4.76,RU,1583374937
413,san carlos de bariloche,-41.15,-71.31,64.4,48,18,8.05,AR,1583374638
414,marrakesh,31.63,-8.01,60.8,59,0,2.24,MA,1583374920
415,rafraf,37.19,10.18,55.4,76,20,14.99,TN,1583374937
416,maple creek,49.92,-109.48,31.33,71,54,13.96,CA,1583374937
417,kununurra,-15.77,128.73,87.8,58,15,10.29,AU,1583374937
418,weiser,44.25,-116.97,57.2,24,1,4.59,US,1583374937
419,barcelos,41.54,-8.62,59.0,93,75,20.8,PT,1583374902
420,saint-joseph,-21.37,55.62,78.8,100,90,4.7,RE,1583374937
421,yanam,16.73,82.22,75.2,73,20,9.17,IN,1583374937
422,dourados,-22.22,-54.81,67.86,76,0,4.83,BR,1583374937
423,qasigiannguit,68.82,-51.19,-13.0,62,46,2.24,GL,1583374938
424,xinglongshan,43.96,125.47,26.6,53,0,17.9,CN,1583374938
425,maldonado,-34.67,-54.92,68.0,88,0,11.41,UY,1583374938
426,priargunsk,50.37,119.1,2.73,92,100,2.62,RU,1583374938
427,honningsvag,70.98,25.97,25.02,67,83,26.46,NO,1583374938
428,tongling,30.95,117.78,51.53,50,0,14.9,CN,1583374938
429,sobolevo,54.43,31.9,43.38,94,100,13.42,RU,1583374938
430,hervey bay,-25.3,152.85,90.0,65,90,11.41,AU,1583374938
431,san patricio,19.22,-104.7,78.8,74,40,13.82,MX,1583374938
432,pafos,34.77,32.42,60.8,62,100,9.17,CY,1583374826
433,chernyshevskiy,63.01,112.47,10.02,94,100,5.59,RU,1583374938
434,batemans bay,-35.72,150.18,71.01,100,100,4.52,AU,1583374938
435,saint-augustin,51.23,-58.65,31.42,94,100,30.49,CA,1583374939
436,devils lake,48.11,-98.87,37.4,88,40,20.8,US,1583374939
437,klaksvik,62.23,-6.59,39.2,64,100,11.41,FO,1583374939
438,russell,32.35,-85.2,55.99,87,90,5.82,US,1583374939
439,xiaoshi,41.3,124.12,30.2,58,16,6.71,CN,1583374939
440,bulgan,48.81,103.53,18.54,75,6,6.96,MN,1583374939
441,sivas,39.79,37.0,33.8,69,51,16.11,TR,1583374939
442,tambacounda,13.75,-13.76,80.6,13,0,6.93,SN,1583374939
443,togur,58.36,82.83,14.56,95,57,5.75,RU,1583374939
444,jose bonifacio,-21.05,-49.69,77.0,61,0,3.36,BR,1583374939
445,smidovich,48.6,133.82,19.58,86,0,3.8,RU,1583374939
446,ixtapa,20.7,-105.2,80.6,54,90,3.36,MX,1583374940
447,algarrobo,10.19,-74.58,79.0,80,89,4.25,CO,1583374940
448,feira de santana,-12.27,-38.97,74.57,87,0,3.65,BR,1583374940
449,yeniseysk,58.45,92.17,29.03,87,100,13.96,RU,1583374940
450,ondo,7.1,4.83,76.59,96,62,2.93,NG,1583374940
451,galesong,-5.32,119.37,80.6,88,40,3.36,ID,1583374940
452,gawler,-34.6,138.73,70.0,60,75,13.87,AU,1583374940
453,huautla,21.03,-98.28,67.28,97,80,7.56,MX,1583374940
454,rampura,30.25,75.23,61.7,74,77,18.32,IN,1583374940
455,sambava,-14.27,50.17,71.74,81,100,2.95,MG,1583374940
456,amapa,1.0,-52.0,70.03,98,4,3.02,BR,1583374940
457,oktyabrskoye,43.06,44.74,45.52,28,22,3.71,RU,1583374940
458,naze,28.37,129.48,57.2,71,75,13.87,JP,1583374940
459,canyon lake,29.88,-98.26,59.0,87,90,14.99,US,1583374941
460,spirit river,55.78,-118.84,28.4,54,40,16.11,CA,1583374941
461,jining,35.41,116.58,48.0,18,0,13.15,CN,1583374722
462,kasempa,-13.46,25.83,63.43,99,100,5.57,ZM,1583374941
463,ossora,59.24,163.07,7.61,69,18,1.52,RU,1583374941
464,poum,-20.23,164.02,81.79,78,38,19.1,NC,1583374941
465,seydi,39.48,62.91,38.21,54,76,8.23,TM,1583374941
466,port-gentil,-0.72,8.78,82.24,79,100,8.55,GA,1583374941
467,ternate,0.8,127.4,84.2,76,100,5.03,ID,1583374941
468,cermik,38.14,39.45,32.0,68,100,2.24,TR,1583374941
469,bijie,27.31,105.29,45.81,81,91,3.91,CN,1583374942
470,tottori,35.5,134.23,44.6,64,40,33.33,JP,1583374728
471,la orilla,17.98,-102.23,71.31,87,64,3.04,MX,1583374942
472,prabumulih,-3.45,104.25,73.76,94,100,3.51,ID,1583374910
473,chimore,-16.98,-65.13,75.56,71,38,2.35,BO,1583374845
474,lucknow,26.85,80.92,62.6,93,75,3.76,IN,1583374821
475,saint-francois,46.42,3.91,44.6,93,100,5.82,FR,1583374942
476,araouane,18.9,-3.53,74.3,11,0,10.58,ML,1583374942
477,abonnema,4.71,6.79,78.8,94,20,5.35,NG,1583374942
478,tateyama,34.98,139.87,57.2,44,20,13.87,JP,1583374942
479,changli,39.7,119.15,57.99,29,0,14.38,CN,1583374943
480,tomatlan,19.93,-105.25,64.9,85,97,1.03,MX,1583374943
481,san ramon de la nueva oran,-23.13,-64.33,77.0,87,44,2.53,AR,1583374943
482,livani,56.35,26.18,37.99,93,100,4.76,LV,1583374943
483,biloela,-24.42,150.5,86.34,60,94,14.54,AU,1583374943
484,vlore,40.47,19.49,47.07,74,89,4.21,AL,1583374943
485,kaitangata,-46.28,169.85,53.28,70,0,8.81,NZ,1583374943
486,boo,59.33,18.28,35.01,88,86,8.05,SE,1583374943
487,bonham,33.58,-96.18,53.6,76,90,5.82,US,1583374943
488,palmer,42.16,-72.33,46.4,48,20,17.22,US,1583374766
489,vaxjo,56.88,14.81,37.0,100,89,9.17,SE,1583374943
490,hamilton,39.18,-84.53,46.99,49,1,9.17,US,1583374943
491,brigantine,39.41,-74.36,54.0,37,90,5.82,US,1583374944
492,tehachapi,35.13,-118.45,73.99,35,1,6.93,US,1583374944
493,mehamn,71.04,27.85,12.7,84,86,19.66,NO,1583374944
494,cabedelo,-6.98,-34.83,78.8,88,20,2.24,BR,1583374944
495,kyra,49.58,111.98,15.01,80,100,1.66,RU,1583374944
496,atambua,-9.11,124.89,82.76,70,41,4.94,ID,1583374944
497,adelaide,-34.93,138.6,70.0,60,75,12.75,AU,1583374839
498,san quintin,30.48,-115.95,36.0,37,40,11.99,MX,1583374944
499,bom jesus,-9.07,-44.36,72.66,96,99,8.46,BR,1583374944
500,sant feliu de guixols,41.78,3.03,53.01,100,20,2.24,ES,1583374944
501,yarada,17.65,83.27,73.4,83,20,2.24,IN,1583374944
502,auki,-8.77,160.7,85.53,71,98,4.29,SB,1583374944
503,bardsir,29.92,56.57,28.4,54,0,4.7,IR,1583374945
504,kailua,21.4,-157.74,82.4,69,75,8.59,US,1583374945
505,banda aceh,5.56,95.32,85.33,64,100,3.96,ID,1583374945
506,port lincoln,-34.73,135.87,64.18,61,100,10.89,AU,1583374945
507,egvekinot,66.32,-179.17,-6.77,94,7,4.76,RU,1583374945
508,lafia,8.48,8.52,77.76,32,2,1.43,NG,1583374945
509,padang,-0.95,100.35,77.05,81,100,3.65,ID,1583374945
510,conceicao do araguaia,-8.26,-49.26,75.2,100,100,1.12,BR,1583374945
511,fria,10.42,-13.58,65.64,91,16,1.19,GN,1583374945
512,roma,43.21,-75.46,35.01,86,90,9.17,US,1583374889
513,waqqas,32.54,35.61,61.0,56,21,4.0,JO,1583374945
514,mwinilunga,-11.74,24.43,59.61,97,36,1.9,ZM,1583374945
515,broceni,56.7,22.53,36.73,92,100,6.89,LV,1583374946
516,tamiahua,21.27,-97.45,73.96,81,67,22.19,MX,1583374946
517,hidalgotitlan,17.78,-94.63,87.8,43,5,11.41,MX,1583374946
518,mattru,7.62,-11.83,76.59,92,3,0.51,SL,1583374946
519,bengbu,32.94,117.36,48.76,47,0,11.95,CN,1583374946
520,maridi,4.92,29.47,72.1,33,50,4.72,SS,1583374946
521,malvern,34.36,-92.81,57.2,47,20,6.93,US,1583374946
522,kirakira,-10.45,161.92,84.31,76,12,0.65,SB,1583374946
523,teguise,29.06,-13.56,62.6,88,45,10.29,ES,1583374946
524,baruun-urt,46.68,113.28,22.24,70,100,11.23,MN,1583374946
525,upata,8.01,-62.4,71.19,78,41,7.85,VE,1583374946
526,iturama,-19.73,-50.2,69.01,94,0,3.22,BR,1583374946
527,blagoyevo,63.37,47.92,3.16,96,0,2.51,RU,1583374947
528,la rioja,42.25,-2.5,50.0,87,99,1.12,ES,1583374947
529,novyy nekouz,57.9,38.07,33.31,88,100,11.99,RU,1583374947
530,galveston,29.37,-94.97,62.01,82,90,8.05,US,1583374947
